id,name,latitude,longitude
1,New York,40.7128,-74.0060
2,London,51.5074,-0.1278
3,Tokyo,35.6895,139.6917
4,Paris,48.8566,2.3522
5,Sydney,-33.8688,151.2093
6,Berlin,52.5200,13.4050
7,São Paulo,-23.5505,-46.6333
8,Toronto,43.6510,-79.3470
9,Cape Town,-33.9249,18.4241
10,Mumbai,19.0760,72.8777
11,Medellín,6.2500,-75.5600
